{"-NKUEo3TGYzAZG12owA2":{"location":"אני גר במעלה אדומים, מה איתך איפה ת'גר גבר?","name":"Lol","phone":"007"},"-NKUa2pshorr9ADArV1D":{"location":"עבודה להגשה מהמלך","name":"אריאל ברוק","phone":"1234567890"},"-NKg5C0uBzvPSr-Poytv":{"location":"תראה אתה יכול לשלוח פה הודעות","name":"אורי","phone":"054"},"-NKrPcbn1xPwp2TIyX3K":{"location":"Hjj","name":"Hhh","phone":"666"},"-NKrQh96XCGAVHpssDfJ":{"location":"בצפר","name":"שגיא","phone":"0523206969"},"-NKrQhJX5fHqacBkWQKh":{"location":"בצפר","name":"שגיא","phone":"0523206969"},"-NKrQl2fioCsVsrPpdrX":{"location":"בצפר","name":"שג׳יא","phone":"0523206969"},"-NKs73YcsVrn7cwVUWsU":{"location":"scroll test","name":"scroll test","phone":"054444444054444444054444444054444444"},"-NKs74nOi5JaM-n-QZtd":{"location":"scroll test","name":"scroll test","phone":"054444444054444444054444444054444444"},"-NKs74p3WQ-cmaRXXcaJ":{"location":"scroll test","name":"scroll test","phone":"054444444054444444054444444054444444"},"-NKs74rpoanEZD7edoFZ":{"location":"scroll test","name":"scroll test","phone":"054444444054444444054444444054444444"},"-NKs74sh3PnVjDlqPCr_":{"location":"scroll test","name":"scroll test","phone":"054444444054444444054444444054444444"},"-NKs74zW7AsJiN6bkn2U":{"location":"scroll test","name":"scroll test","phone":"054444444054444444054444444054444444"},"-NKs74zcf-5nrdjVy97m":{"location":"scroll test","name":"scroll test","phone":"054444444054444444054444444054444444"},"-NKs75fVYJ-sXzd-Gekc":{"location":"scroll test","name":"scroll test","phone":"054444444054444444054444444054444444"},"-NKs8MlsiF8DTLYqe7fv":{"location":"scroll test","name":"scroll test","phone":"054444444054444444054444444054444444"},"-NKsGshpHzHELCiRcPKQ":{"location":"scroll test","name":"scroll test","phone":"054444444054444444054444444054444444"},"-NKsLf0CpN0RcAql76zc":{"location":"scroll test","name":"scroll test","phone":"054444444054444444054444444054444444"},"-NKsLhKFwar1uwWcEuiT":{"location":"scroll test","name":"scroll test","phone":"154444444054444444054444444054444444"},"-NKsLiCQE1lQ9VmBok-J":{"location":"scroll test","name":"scroll test","phone":"154444444054444444054444444054444444"},"-NKsLwpDqU_g_Kd4rT-V":{"location":"scroll test","name":"scroll test","phone":"154444444054444444054444444054444444"},"-NKsM4Nf3Fc1BjpQs8hN":{"location":"scroll test","name":"scroll test","phone":"154444444054444444054444444054444444"},"-NKsM5wJ6NkCWyeqWzuV":{"location":"scroll test","name":"scroll test","phone":"154444444054444444054444444054444444"},"-NKsNNyO6NR1ictYEox8":{"location":"scroll test","name":"scroll test","phone":"154444444054444444054444444054444444"},"-NKsNp2lk5N4jvUaqM3r":{"location":"scroll test","name":"scroll test","phone":"154444444054444444054444444054444444"},"-NKsNzjbgaCLicWkNJ3H":{"location":"scroll test","name":"scroll test","phone":"6578675"},"-NKsO7N3XTZf8lRBsrRF":{"location":"scroll test","name":"scroll test","phone":"6578675"},"-NKsOLcy8g_vjfY3YB9S":{"location":"scroll test","name":"scroll test","phone":"6578675"},"-NKsPLoro9TInYTUW7Ke":{"location":"asdfaf","name":"dsaf","phone":"43"},"-NKsPT3pXdS5xZG5lGez":{"location":"asdfaf","name":"dsaf","phone":"43"},"-NKsPUKm2Pc8opmlCqtA":{"location":"asdfaf","name":"dsaf","phone":"43"},"-NKsPXVbfOgLqiwntk-c":{"location":"asdfaf","name":"dsaf","phone":"43"},"-NKsPZgXLkXR4doJ6oIf":{"location":"asdfaf","name":"dsaf","phone":"43"},"-NKsR64HpEmVaPCaQvC4":{"location":"asdfaf","name":"dsaf","phone":"43"},"-NKsRDzIqF9HNWLFVlbT":{"location":"asdfaf","name":"dsaf","phone":"43"},"-NKsRFlMaCjTc0LOh8na":{"location":"asdfaf","name":"dsaf","phone":"438"},"-NKsRK2zqJrlKgYKXbSv":{"location":"asdfaf","name":"dsaf","phone":"438"},"-NKsRO3pcvEYuhSgz0Za":{"location":"asdfaf","name":"dsaf","phone":"438"},"-NKsRoWydYJx6yA8zs1p":{"location":"scroll test","name":"scroll test","phone":"6578675"},"-NKsRrT5IxGf23lp_9cH":{"location":"scroll test","name":"scroll test","phone":"6578675"},"-NKsRs6DFZNAHMYGjO1a":{"location":"scroll test","name":"scroll test","phone":"6578675"},"-NKsRsR8fUbaGQVJa_ld":{"location":"scroll test","name":"scroll test","phone":"6578675"},"-NKsRsivk1Iyvu4Izsh_":{"location":"scroll test","name":"scroll test","phone":"6578675"},"-NKsTxq1cUFst1yRYg7I":{"location":"scroll test","name":"scroll test","phone":"6578675"},"-NKsUGhnYnpTU3pfyBHD":{"location":"scroll test","name":"scroll test","phone":"6578675"},"-NKsUpYlshutHX0u2M6k":{"location":"scroll test","name":"scroll test","phone":"6578675"},"-NKsXIPbOOY3dxTNPDkw":{"location":"scroll test","name":"scroll test","phone":"6578675"},"-NKsXNwhKUBrXE3rnoVf":{"location":"scroll test","name":"scroll test","phone":"6578675"},"-NKsXQAxUNAMoVzRsCnm":{"location":"scroll test","name":"scroll test","phone":"6578675"},"-NKsXRkrwMbb4Ctc-OkA":{"location":"scroll test","name":"scroll test","phone":"65786755"},"-NKsaZ9xKfPMlutY7hAr":{"location":"scroll test","name":"scroll test","phone":"65786755"},"-NKsahSk5-Uz-5tkCgRq":{"location":"scroll test","name":"scroll test","phone":"65786755"},"-NKsavJpIotMBn3FGEck":{"location":"scroll test","name":"scroll test","phone":"65786755"},"-NKsaxLJ_Hxh4J5JM5_w":{"location":"scroll test","name":"scroll test","phone":"65786755"},"-NKsbQ1yuD_KtwhKVvOZ":{"location":"scroll test","name":"scroll test","phone":"65786755"},"-NKsbYQDTrIXufiCtaDG":{"location":"scroll test","name":"scroll test","phone":"65786755"},"-NKsbZqYtnCuoHMqqi40":{"location":"scroll test","name":"scroll test","phone":"65786755"},"-NKscgn3bVEfuYhxHxyo":{"location":"scroll test","name":"scroll test","phone":"65786755"},"-NKseglpmU3jnRQTQwfx":{"location":"scroll test","name":"scroll test","phone":"65786755"},"-NKshsPFe1SsRASGn8HH":{"location":"scroll test","name":"scroll test4","phone":"65786755"},"-NKsiwzEURao5pc4KEGG":{"location":"scroll test","name":"scroll test44","phone":"65786755"},"-NKsj58FEfmznq1aCDVQ":{"location":"scroll test","name":"scroll test44","phone":"65786755"},"-NKsj8GFgCpeKQgEA6zZ":{"location":"scroll test","name":"scroll test44","phone":"65786755"},"-NKsj8s4VGKj08zWJR6J":{"location":"scroll test","name":"scroll test44","phone":"65786755"},"-NKsjNt_JDRrQhfh_zr5":{"location":"scroll test","name":"scroll test44","phone":"65786755"},"-NKsjOfREXLzSbyGGDpH":{"location":"scroll test","name":"scroll test44dg","phone":"65786755"},"-NKsjlyOBlyF-rtzo4Ey":{"location":"scroll test","name":"scroll test44dgf","phone":"65786755"},"-NKskAdKomVMTjLWiAwf":{"location":"scroll test","name":"scroll test44dgf","phone":"65786755"},"-NKskCrUhewkGMV1TOwt":{"location":"scroll test","name":"scroll test44dgfg","phone":"65786755"},"-NKskMlZzka0a3u_vbL_":{"location":"scroll test","name":"scroll test44dgfg","phone":"6578675599"},"-NKskNTaRbt_6ra0xgkA":{"location":"scroll test","name":"scroll test44dgfg","phone":"6578675599"},"-NKskNdPmH_OZMXN6oX1":{"location":"scroll test","name":"scroll test44dgfg","phone":"6578675599"},"-NKskO5Oqymq3qvaTXWC":{"location":"scroll test","name":"scroll test44dgfg","phone":"6578675599"},"-NKsk_rIKZEOUGOEnMth":{"location":"scroll test","name":"scroll test44dgfgk","phone":"6578675599"},"-NKskalV0esUSJgK_bPI":{"location":"scroll test","name":"scroll test44dgfgk","phone":"6578675599"},"-NKskbSKc-IBrEKwdkwk":{"location":"scroll test","name":"scroll test44dgfgk","phone":"6578675599"},"-NKskbv0Cv2nEayYQ1PP":{"location":"scroll test","name":"scroll test44dgfgk","phone":"6578675599"},"-NKsksMA8fe0T4Ipf8LQ":{"location":"scroll test","name":"scroll test44dgfgk","phone":"6578675599"},"-NKslaE7DjHGLoDaKo05":{"location":"scroll test","name":"scroll test44dgfgk","phone":"6578675599"},"-NKsnGoWVwk1RgS79WuV":{"location":"scroll test","name":"scroll test44dgfgk","phone":"6578675599"},"-NKsnOJlviU7aGNnPd8H":{"location":"scroll test","name":"scroll test44dgfgk","phone":"6578675599"},"-NKsnP0oBbAC6caWycFG":{"location":"scroll test","name":"scroll test44dgfgk","phone":"6578675599"},"-NKsnVJbP1fu7mxTxAJA":{"location":"scroll test","name":"scroll test44dgfgk","phone":"6578675599"},"-NKsnngYRwni49OXmkhA":{"location":"scroll test","name":"scroll test44dgfgk","phone":"6578675599"},"-NKsnoX0nZzQM0kINXOZ":{"location":"scroll test","name":"scroll test44dgfgk","phone":"6578675599"},"-NKso3svMK_zayOY_Ix1":{"location":"scroll test","name":"scroll test44dgfgk","phone":"6578675599"},"-NKso5uMhlnCPlUhrK6o":{"location":"scroll test","name":"scroll test44dgfgk","phone":"6578675599"},"-NKso71RkZwkZj5OHsW_":{"location":"scroll test","name":"scroll test44dgfgk","phone":"6578675599"},"-NKso7jWIvwzRqnks1uM":{"location":"scroll test","name":"scroll test44dgfgk","phone":"6578675599"},"-NKso8EslAyUR6YaBGwl":{"location":"scroll test","name":"scroll test44dgfgk","phone":"6578675599"},"-NKsoIz1XwpiyPHCImWT":{"location":"scroll test","name":"scroll test44dgfgk","phone":"6578675599"},"-NKsoK3EZqYu7IhNypOl":{"location":"scroll test","name":"scroll test44dgfgkd","phone":"6578675599"},"-NKsoLhlZpDVMY_8vPaJ":{"location":"scroll test","name":"scroll test44dgfgkd","phone":"6578675599"},"-NKsoM4uCtVmxprMSfxD":{"location":"scroll test","name":"scroll test44dgfgkd","phone":"6578675599"},"-NKsosK7mn7mvcJs25CO":{"location":"scroll test","name":"scroll test44dgfgkd","phone":"6578675599"},"-NKsosfbHTUK_BfxgFi8":{"location":"scroll test","name":"scroll test44dgfgkd","phone":"6578675599"},"-NKsrLYk7YUJXP7pRC0C":{"location":"scroll test","name":"scroll test44dgfgkd","phone":"6578675599"},"-NKsrolSvc772LNrp6Yb":{"location":"5436","name":"dfsg","phone":"5436"},"-NKsrpoprJ2rSrGGIspY":{"location":"5436","name":"dfsg","phone":"5436"},"-NKssbLA676kPHCm4MU_":{"location":"5436","name":"dfsg","phone":"5436"},"-NKsscJTUGzTk4gGG_zp":{"location":"5436","name":"dfsg","phone":"5436"},"-NKssdpOnaVnKBsaOof9":{"location":"5436","name":"dfsg54","phone":"5436"},"-NKsshKE_r76Zs_sY5rO":{"location":"5436","name":"dfsg54","phone":"5436"},"-NKssiSTwP1TbFb7Z9B9":{"location":"5436","name":"dfsg54","phone":"5436"},"-NKssjU3EX18G9aiJMsX":{"location":"5436","name":"dfsg54","phone":"5436"},"-NKsskTD0xiHUIl70Pbp":{"location":"5436","name":"dfsg54","phone":"5436"},"-NKst2UzYsy2ZPkI4dhF":{"location":"5436","name":"dfsg54","phone":"5436"},"-NKst42lJ-JFDX8ol9kz":{"location":"5436","name":"dfsg54","phone":"5436"},"-NKst5a4AuD4PzzvjOzr":{"location":"5436","name":"dfsg54fg","phone":"5436"},"-NKst5nT0h6_Mw9uKhuV":{"location":"5436","name":"dfsg54fg","phone":"5436"},"-NKst7D19VSkirwhJ_J2":{"location":"5436","name":"dfsg54fg","phone":"5436"},"-NKstKLLrUMQucszUL3M":{"location":"5436","name":"dfsg54fggg","phone":"5436"},"-NKstLCzxx5FW_ke1Zi2":{"location":"5436","name":"dfsg54fggg","phone":"5436"},"-NKstZDgFScImvkYhCSs":{"location":"5436","name":"dfsg54fggg","phone":"5436"},"-NKst_0gK77KdoqzKu7J":{"location":"5436","name":"dfsg54fggg","phone":"5436"},"-NKst_yxcN0Rg2MLq94P":{"location":"5436","name":"dfsg54fggg","phone":"5436"},"-NKstaWCFUbreZ3RpzaS":{"location":"5436","name":"dfsg54fggg","phone":"5436"},"-NKstbqOm18aUg1rgvSX":{"location":"5436","name":"dfsg54fggg","phone":"5436"},"-NKstc4bhUIa9CPRPIjY":{"location":"5436","name":"dfsg54fggg","phone":"5436"},"-NKstcSBpNS6OBlTHb_w":{"location":"5436","name":"dfsg54fggg","phone":"5436"},"-NKstuQcmhaWU3i_-X-9":{"location":"5436","name":"dfsg54fggg","phone":"5436"},"-NKstuq03FZFo3V2ttDu":{"location":"5436","name":"dfsg54fggg","phone":"5436"},"-NKstxduFoQfQlBywhPQ":{"location":"5436","name":"dfsg54fggg","phone":"5436"},"-NKsty68_ZO-lR6dxDU5":{"location":"5436","name":"dfsg54fggg","phone":"5436"},"-NKsut9XVs8eC9tEvnVd":{"location":"5436","name":"dfsg54fggg","phone":"5436"},"-NKsv5TioeDk5PMqQh-Q":{"location":"5436","name":"dfsg54fgggghf","phone":"5436"},"-NKsv7EVUcpwaRDJi6m4":{"location":"5436","name":"dfsg54fgggghf","phone":"5436"},"-NKsveOVZTgGm_Kbz7Fc":{"location":"5436","name":"hello world","phone":"5436"},"-NKswWbH8gwsh_-hh20q":{"location":"5436","name":"hello world","phone":"5436"},"-NKswZ8qIWPhKlJUvPQ0":{"location":"5436","name":"hello world","phone":"5436"},"-NKswZI8yTGAaZRNspas":{"location":"5436","name":"hello world","phone":"5436"},"-NKswZIOJ_oQyOvMeoSQ":{"location":"5436","name":"hello world","phone":"5436"},"-NKt-hrqXh0Q4ads_WCM":{"location":"Huu","name":"Uuu","phone":"333"},"-NKt8VUJxlrvR8Sj9lTb":{"location":"5436","name":"hello world","phone":"5436"},"-NKtgYgDPoOYVvVlyebB":{"location":"hj","name":"jhg","phone":"76"},"-NKxnSD6bsdoqNkmhFtk":{"location":"5674","name":"6574","phone":"6547"},"-NKyN2UbLKGOuZ3urGyP":{"location":"Ff","name":"Ouu","phone":"58"},"-NKyZpNabGap3uxXUyEo":{"location":"5463","name":"fhd","phone":"4536"},"-NKydIzIOMlSk5bE_taD":{"location":"Djd","name":"Djdj","phone":"565"},"-NL-Y4xOyrWm4u6qkaTl":{"location":"עעיי","name":"עייי","phone":"566"},"-NLBVnRdEKo5YjLJb4Fb":{"location":"חכחכ","name":"כיכוכ","phone":"595"}}fjdfhd3747djc@,djf3djvbananappledh3sj01101000 01100101 01101100 01101100 01101111 00100000 01110111 01101111 01110010 01101100 01100100 00100001